[{"address":"上海市黄浦区上海市","city":"上海市","city_id":1,"distance":"","district_id":5251,"geohash":"wtw3sjq6jkkm","id":"B00156EAZH","latitude":31.230378,"longitude":121.473658,"name":"上海市","request_id":"1251656927999578609","short_address":"黄浦区上海市"},{"address":"上海市静安区秣陵路303号","city":"上海市","city_id":1,"distance":"","district_id":5254,"geohash":"wtw3gbc3un70","id":"B00155KSDE","latitude":31.249571,"longitude":121.45575,"name":"上海站","request_id":"8806921508468112909","short_address":"秣陵路303号"},{"address":"上海市静安区1号线;3号线;4号线","city":"上海市","city_id":1,"distance":"","district_id":5254,"geohash":"wtw3gbffr1e7","id":"BV10024601","latitude":31.249632,"longitude":121.457939,"name":"上海火车站(地铁站)","request_id":"5111488706755506350","short_address":"1号线;3号线;4号线"},{"address":"上海市宝山区上大路99号","city":"上海市","city_id":1,"distance":"","district_id":5260,"geohash":"wtw64ku5bdgd","id":"B00155984M","latitude":31.315814,"longitude":121.393459,"name":"上海大学宝山校区","request_id":"6710067765957088026","short_address":"上大路99号"},{"address":"上海市浦东新区银城中路501号","city":"上海市","city_id":1,"distance":"","district_id":5262,"geohash":"wtw3svvs2xjx","id":"B00155KO68","latitude":31.233526,"longitude":121.505385,"name":"上海中心大厦","request_id":"6200070175717600810","short_address":"银城中路501号"},{"address":"上海市宝山区7号线","city":"上海市","city_id":1,"distance":"","district_id":5260,"geohash":"wtw64m8xwh2m","id":"BV10024672","latitude":31.320586,"longitude":121.388884,"name":"上海大学(地铁站)","request_id":"2538872593463823337","short_address":"7号线"},{"address":"上海市徐汇区沪闵路9001号","city":"上海市","city_id":1,"distance":"","district_id":5252,"geohash":"wtw35pmbx6zk","id":"B00155DNI5","latitude":31.153208,"longitude":121.429116,"name":"上海南站","request_id":"6554252726111636534","short_address":"沪闵路9001号"},{"address":"上海市静安区乌鲁木齐北路505号","city":"上海市","city_id":1,"distance":"","district_id":5254,"geohash":"wtw3ee113vjx","id":"B00155ILR2","latitude":31.217894,"longitude":121.444327,"name":"上海宾馆","request_id":"1604808451727797477","short_address":"乌鲁木齐北路505号"},{"address":"上海市黄浦区淮海中路138号","city":"上海市","city_id":1,"distance":"","district_id":5251,"geohash":"wtw3sk3kpsh0","id":"B00155L4P1","latitude":31.225226,"longitude":121.477874,"name":"上海广场","request_id":"2070803102831581324","short_address":"淮海中路138号"},{"address":"上海市浦东新区浦东南路1138号","city":"上海市","city_id":1,"distance":"","district_id":5262,"geohash":"wtw3thsnrf2j","id":"B00155DBIJ","latitude":31.226977,"longitude":121.514615,"name":"上海湾","request_id":"8297457684840521430","short_address":"浦东南路1138号"},{"address":"上海市虹口区北苏州路20号","city":"上海市","city_id":1,"distance":"","district_id":5257,"geohash":"wtw3sxf7bwhx","id":"B00156DHEW","latitude":31.244421,"longitude":121.489934,"name":"上海大厦","request_id":"6148398265949340519","short_address":"北苏州路20号"},{"address":"上海市普陀区金鼎路298弄之1-58号","city":"上海市","city_id":1,"distance":"","district_id":5255,"geohash":"wtw3f66m5ybs","id":"B00155L2SH","latitude":31.258372,"longitude":121.391191,"name":"上海家园","request_id":"3233590710451644498","short_address":"金鼎路298弄之1-58号"},{"address":"上海市长宁区新华路160号","city":"上海市","city_id":1,"distance":"","district_id":5253,"geohash":"wtw3e0q2h65b","id":"B0015483FE","latitude":31.202556,"longitude":121.429669,"name":"上海影城(新华路店)","request_id":"6377000379327784759","short_address":"新华路160号"},{"address":"上海市黄浦区南昌路110弄之1-25号","city":"上海市","city_id":1,"distance":"","district_id":5251,"geohash":"wtw3s563zrqn","id":"B00155L3AP","latitude":31.219365,"longitude":121.468253,"name":"上海别墅","request_id":"4778480691985948202","short_address":"南昌路110弄之1-25号"},{"address":"上海市浦东新区高荷路555号近大同路和龙路桥附近","city":"上海市","city_id":1,"distance":"","district_id":5262,"geohash":"wtw6q8cv9jrq","id":"B00155QXQ2","latitude":31.338101,"longitude":121.577163,"name":"上海人家(高桥店)","request_id":"2095034072016886660","short_address":"高荷路555号近大同路和龙路桥附近"},{"address":"上海市浦东新区浦东国际机场2号航站楼4层","city":"上海市","city_id":1,"distance":"","district_id":5262,"geohash":"wtw95yffhpp2","id":"B00155H99O","latitude":31.150741,"longitude":121.809378,"name":"上海人家(浦东机场店)","request_id":"7981723057428587854","short_address":"浦东国际机场2号航站楼4层"},{"address":"上海市虹口区四川北路1885号多伦生活广场3层(近多伦路)","city":"上海市","city_id":1,"distance":"","district_id":5257,"geohash":"wtw3u7j8ywbd","id":"B00155FLF3","latitude":31.261762,"longitude":121.483663,"name":"上海歌城(四川北路店)","request_id":"9199858097710053181","short_address":"四川北路1885号多伦生活广场3层(近多伦路)"},{"address":"上海市静安区乌鲁木齐北路501号","city":"上海市","city_id":1,"distance":"","district_id":5254,"geohash":"wtw3ee0sm0ru","id":"B00156CT74","latitude":31.218383,"longitude":121.443783,"name":"上海宾馆(西三门)","request_id":"2958505889426303587","short_address":"乌鲁木齐北路501号"},{"address":"上海市静安区乌鲁木齐北路505号","city":"上海市","city_id":1,"distance":"","district_id":5254,"geohash":"wtw3ee0dkzw2","id":"B00155QBMP","latitude":31.218078,"longitude":121.44377,"name":"上海宾馆(西二门)","request_id":"4806211829465455176","short_address":"乌鲁木齐北路505号"},{"address":"上海市闵行区莘松路958号","city":"上海市","city_id":1,"distance":"","district_id":5259,"geohash":"wtw2cqrv5d1u","id":"B00155D762","latitude":31.104538,"longitude":121.35479,"name":"上海康城","request_id":"1741310885313287934","short_address":"莘松路958号"}]